{"A Train":[{"name":"Trinity Mills","lat":32.9803917,"lon":-96.9261764},{"name":"Hebron","lat":33.0105932,"lon":-96.9587312},{"name":"Old Town","lat":33.0477906,"lon":-96.9865721},{"name":"Highland Village/Lewisville Lake","lat":33.0839026,"lon":-97.0260966},{"name":"MedPark","lat":33.1826329,"lon":-97.0910341},{"name":"Downtown Denton Transit Center","lat":33.2138503,"lon":-97.126216}],"Blue Line":[{"name":"Downtown Rowlett","lat":32.904231,"lon":-96.5630865},{"name":"Downtown Garland","lat":32.9162515,"lon":-96.6359211},{"name":"Forest/Jupiter","lat":32.9079505,"lon":-96.6800303},{"name":"LBJ/Skillman","lat":32.8979336,"lon":-96.7122298},{"name":"Lake Highlands","lat":32.8789764,"lon":-96.7306231},{"name":"White Rock","lat":32.8555215,"lon":-96.7327129},{"name":"SMU/Mockingbird","lat":32.8375316,"lon":-96.7754524},{"name":"CityPlace/Uptown","lat":32.8058767,"lon":-96.793399},{"name":"Pearl/Arts District","lat":32.7861883,"lon":-96.794915},{"name":"Saint Paul","lat":32.7839891,"lon":-96.7974639},{"name":"Akard","lat":32.7818377,"lon":-96.8011981},{"name":"West End","lat":32.7807707,"lon":-96.8062729},{"name":"Union Station","lat":32.7754968,"lon":-96.8080186},{"name":"Cedars","lat":32.7685502,"lon":-96.7932497},{"name":"8th & Corinth","lat":32.7480083,"lon":-96.7987346},{"name":"Morrell","lat":32.7397345,"lon":-96.8026658},{"name":"Illinois","lat":32.722783,"lon":-96.8052932},{"name":"Kiest","lat":32.7067758,"lon":-96.8009274},{"name":"VA Medical Center","lat":32.6933101,"lon":-96.7928107},{"name":"Ledbetter","lat":32.6828241,"lon":-96.7887225},{"name":"Camp Wisdom","lat":32.6660832,"lon":-96.787899},{"name":"UNT Dallas","lat":32.6538803,"lon":-96.8015745}],"Cotton Belt":[{"name":"DFW Airport Terminal B","lat":32.9069183,"lon":-97.041221},{"name":"DFW Airport North","lat":32.9342615,"lon":-97.0543288},{"name":"Cypress Waters","lat":32.9508172,"lon":-96.982823},{"name":"Downtown Carrollton Silver Line Station","lat":32.9557775,"lon":-96.9077289},{"name":"Addison","lat":32.9591276,"lon":-96.8277192},{"name":"Knoll Trail","lat":32.9629584,"lon":-96.8172039},{"name":"UT Dallas","lat":32.9964967,"lon":-96.7496068},{"name":"CityLine/Bush","lat":33.00266,"lon":-96.7031383},{"name":"12th Street","lat":33.015498,"lon":-96.6980256},{"name":"Shiloh Road","lat":33.0124996,"lon":-96.66537}],"Green Line":[{"name":"North Carrollton/Frankford","lat":32.9921551,"lon":-96.9374394},{"name":"Trinity Mills","lat":32.9804557,"lon":-96.9260863},{"name":"Downtown Carrollton","lat":32.9540404,"lon":-96.9080487},{"name":"Farmers Branch","lat":32.9213145,"lon":-96.896078},{"name":"Royal Lane","lat":32.8955134,"lon":-96.8881574},{"name":"Walnut Hill/Denton","lat":32.881529,"lon":-96.8837576},{"name":"Bachman","lat":32.8532316,"lon":-96.8772532},{"name":"Burbank","lat":32.8427024,"lon":-96.8616513},{"name":"Inwood/Love Field","lat":32.8217562,"lon":-96.8332612},{"name":"Southwestern Medical District/Parkland","lat":32.8133041,"lon":-96.8332662},{"name":"Market Center","lat":32.8044965,"lon":-96.8230703},{"name":"Victory","lat":32.7890127,"lon":-96.8123378},{"name":"West End","lat":32.7810026,"lon":-96.8049896},{"name":"Akard","lat":32.782015,"lon":-96.8001669},{"name":"Saint Paul","lat":32.7845757,"lon":-96.7966952},{"name":"Pearl/Arts District","lat":32.7867635,"lon":-96.7940903},{"name":"Deep Ellum","lat":32.7855048,"lon":-96.7881501},{"name":"Baylor University Medical Center","lat":32.7866893,"lon":-96.7813249},{"name":"Fair Park","lat":32.7813531,"lon":-96.7662101},{"name":"MLK Jr.","lat":32.7734747,"lon":-96.7642453},{"name":"Hatcher","lat":32.766281,"lon":-96.7418703},{"name":"Lawnview","lat":32.7655709,"lon":-96.7199526},{"name":"Lake June","lat":32.7320279,"lon":-96.7090882},{"name":"Buckner","lat":32.7182653,"lon":-96.6846964}],"Orange Line":[{"name":"DFW Airport Terminal A","lat":32.9066936,"lon":-97.0394776},{"name":"Belt Line","lat":32.8876846,"lon":-96.9861411},{"name":"North Lake College","lat":32.8751555,"lon":-96.9665909},{"name":"Irving Convention Center","lat":32.8766629,"lon":-96.9380936},{"name":"Las Colinas Urban Center","lat":32.8682235,"lon":-96.9332523},{"name":"University of Dallas","lat":32.8487525,"lon":-96.9145432},{"name":"Bachman","lat":32.8532316,"lon":-96.8772532},{"name":"Burbank","lat":32.8427024,"lon":-96.8616513},{"name":"Inwood/Love Field","lat":32.8217562,"lon":-96.8332612},{"name":"Southwestern Medical District/Parkland","lat":32.8133041,"lon":-96.8332662},{"name":"Market Center","lat":32.8044965,"lon":-96.8230703},{"name":"Victory","lat":32.7890127,"lon":-96.8123378},{"name":"West End","lat":32.7810026,"lon":-96.8049896},{"name":"Akard","lat":32.782015,"lon":-96.8001669},{"name":"Saint Paul","lat":32.7845757,"lon":-96.7966952},{"name":"Pearl/Arts District","lat":32.7867635,"lon":-96.7940903},{"name":"CityPlace/Uptown","lat":32.8067579,"lon":-96.7932248},{"name":"SMU/Mockingbird","lat":32.838193,"lon":-96.7744346},{"name":"Lovers Lane","lat":32.8490263,"lon":-96.7715949},{"name":"Park Lane","lat":32.8731755,"lon":-96.7657286},{"name":"Walnut Hill","lat":32.8831909,"lon":-96.7648651},{"name":"Forest Lane","lat":32.9088236,"lon":-96.7613251},{"name":"LBJ/Central","lat":32.9186891,"lon":-96.751792},{"name":"Spring Valley","lat":32.941299,"lon":-96.7370571},{"name":"Arapaho Center","lat":32.9639652,"lon":-96.7225861},{"name":"Galatyn Park","lat":32.9854648,"lon":-96.7107698},{"name":"CityLine/Bush","lat":33.0024905,"lon":-96.7029409},{"name":"12th Street","lat":33.0145093,"lon":-96.7009956},{"name":"Downtown Plano","lat":33.0212035,"lon":-96.7008622},{"name":"Parker Road","lat":33.0343202,"lon":-96.7006573}],"Red Line":[{"name":"Parker Road","lat":33.0343217,"lon":-96.7007646},{"name":"Downtown Plano","lat":33.0203831,"lon":-96.7009195},{"name":"12th Street","lat":33.0145106,"lon":-96.7010474},{"name":"CityLine/Bush","lat":33.0018068,"lon":-96.7033105},{"name":"Galatyn Park","lat":32.9848231,"lon":-96.7111176},{"name":"Arapaho Center","lat":32.9633158,"lon":-96.7230607},{"name":"Spring Valley","lat":32.9405144,"lon":-96.7377009},{"name":"LBJ/Central","lat":32.918129,"lon":-96.7524091},{"name":"Forest Lane","lat":32.9082239,"lon":-96.762143},{"name":"Walnut Hill","lat":32.8821985,"lon":-96.7649936},{"name":"Park Lane","lat":32.8721728,"lon":-96.7660763},{"name":"Lovers Lane","lat":32.8482313,"lon":-96.7719069},{"name":"SMU/Mockingbird","lat":32.8375316,"lon":-96.7754524},{"name":"CityPlace/Uptown","lat":32.8058767,"lon":-96.793399},{"name":"Pearl/Arts District","lat":32.7861883,"lon":-96.794915},{"name":"Saint Paul","lat":32.7839891,"lon":-96.7974639},{"name":"Akard","lat":32.7818377,"lon":-96.8011981},{"name":"West End","lat":32.7807707,"lon":-96.8062729},{"name":"Union Station","lat":32.7754968,"lon":-96.8080186},{"name":"Cedars","lat":32.7685502,"lon":-96.7932497},{"name":"8th & Corinth","lat":32.7480083,"lon":-96.7987346},{"name":"Dallas Zoo","lat":32.7404183,"lon":-96.8133718},{"name":"Tyler/Vernon","lat":32.7330329,"lon":-96.838999},{"name":"Hampton","lat":32.7262014,"lon":-96.8558019},{"name":"Westmoreland","lat":32.7196122,"lon":-96.8722579}],"Texrail":[{"name":"Grapevine-Main Street","lat":32.9337085,"lon":-97.0776417},{"name":"North Richland Hills/Smithfield","lat":32.864882,"lon":-97.2116861},{"name":"North Richland Hills/Iron Horse","lat":32.8445955,"lon":-97.2497242},{"name":"Mercantile Center","lat":32.8195689,"lon":-97.2928773},{"name":"North Side","lat":32.795759,"lon":-97.3380636},{"name":"Fort Worth Central","lat":32.7519942,"lon":-97.3255723},{"name":"Fort Worth T&P","lat":32.7453061,"lon":-97.3290014},{"name":"DFW Airport Terminal B","lat":32.9069188,"lon":-97.0412699}],"TRE":[{"name":"Dallas Union Station","lat":32.7754664,"lon":-96.8081122},{"name":"Victory","lat":32.7906901,"lon":-96.8129599},{"name":"Medical/Market Center","lat":32.809647,"lon":-96.8410133},{"name":"Downtown Irving/Heritage Crossing","lat":32.8149671,"lon":-96.9483675},{"name":"West Irving","lat":32.8161381,"lon":-97.0077695},{"name":"CentrePort/DFW Airport","lat":32.8170433,"lon":-97.0535419},{"name":"Bell","lat":32.8046278,"lon":-97.1557986},{"name":"Trinity Lakes","lat":32.8052158,"lon":-97.2100496},{"name":"Fort Worth Central","lat":32.7519942,"lon":-97.3255723},{"name":"Fort Worth T&P","lat":32.7453061,"lon":-97.3290014}]}
